[{"id": "acad", "name": "Acadia National Park", "type": "National Park", "street": "2 Cottage St., Chamber of Commerce", "city": "Bar Harbor", "state_abbr": "ME", "zip": "04609", "lat": "44.3895893", "lon": "-68.2049056", "by_month": [15520, 14342, 20936, 85267, 222978, 476191, 743529, 762436, 595388, 507595, 53006, 0], "total": "3,497,188"}, {"id": "arch", "name": "Arches National Park", "type": "National Park", "street": "PO Box 907", "city": "Moab", "state_abbr": "UT", "zip": "84532", "lat": "38.5733155", "lon": "-109.5498395", "by_month": [21549, 38248, 129278, 157098, 192762, 197723, 196863, 178674, 187603, 138325, 72867, 0], "total": "1,510,990"}, {"id": "badl", "name": "Badlands National Park", "type": "National Park", "street": "25216 Ben Reifel Road", "city": "Interior", "state_abbr": "SD", "zip": "57750", "lat": "43.7490131", "lon": "-101.9417398", "by_month": [10380, 11149, 21498, 23166, 85967, 213966, 263506, 237125, 127598, 33426, 16807, 0], "total": "1,044,588"}, {"id": "bibe", "name": "Big Bend National Park", "type": "National Park", "street": "PO Box 129", "city": "Big Bend National Park", "state_abbr": "TX", "zip": "79834-0129", "lat": "29.2499017", "lon": "-103.2501638", "by_month": [35105, 41670, 74735, 49609, 37045, 23500, 20599, 16382, 19735, 35094, 45739, 0], "total": "399,213"}, {"id": "bisc", "name": "Biscayne National Park", "type": "National Park", "street": "9700 SW 328th Street Sir Lancelot Jones Way", "city": "Homestead", "state_abbr": "FL", "zip": "33033", "lat": "25.4644137", "lon": "-80.3347549", "by_month": [30661, 34689, 36433, 41287, 55595, 46085, 65142, 41633, 6230, 19456, 34442, 0], "total": "411,653"}, {"id": "blca", "name": "Black Canyon Of The Gunnison National Park", "type": "National Park", "street": "South Rim Visitor Center 9800 Highway 347", "city": "Montrose", "state_abbr": "CO", "zip": "81401", "lat": "38.5549869", "lon": "-107.6865667", "by_month": [6925, 3361, 7147, 11292, 29218, 40616, 44532, 40788, 45983, 54766, 19473, 0], "total": "304,101"}, {"id": "brca", "name": "Bryce Canyon National Park", "type": "National Park", "street": "Highway 63  Bryce Canyon National Park", "city": "Bryce", "state_abbr": "UT", "zip": "84764", "lat": "37.5930377", "lon": "-112.1870895", "by_month": [27774, 32979, 82110, 153242, 330743, 376786, 416608, 403964, 380586, 243118, 74761, 0], "total": "2,522,671"}, {"id": "cany", "name": "Canyonlands National Park", "type": "National Park", "street": "2282 Resource Blvd.", "city": "Moab", "state_abbr": "UT", "zip": "84532", "lat": "38.538146", "lon": "-109.510324", "by_month": [7434, 18698, 65115, 82159, 107756, 87253, 75465, 78510, 91372, 81386, 33138, 0], "total": "728,286"}, {"id": "care", "name": "Capitol Reef National Park", "type": "National Park", "street": "52 West Headquarters Drive", "city": "Torrey", "state_abbr": "UT", "zip": "84775", "lat": "38.2914507", "lon": "-111.262037", "by_month": [10546, 15835, 58636, 146830, 175686, 135677, 137856, 113514, 168104, 119114, 48101, 0], "total": "1,129,899"}, {"id": "cave", "name": "Carlsbad Caverns National Park", "type": "National Park", "street": "727 Carlsbad Caverns Highway", "city": "Carlsbad", "state_abbr": "NM", "zip": "88220", "lat": "32.1754148", "lon": "-104.4446052", "by_month": [17746, 20342, 67429, 45744, 53960, 61408, 81748, 42952, 27714, 31570, 38440, 7236], "total": "496,289"}, {"id": "chis", "name": "Channel Islands National Park", "type": "National Park", "street": "1901 Spinnaker Drive", "city": "Ventura", "state_abbr": "CA", "zip": "93001", "lat": "34.2484866", "lon": "-119.2665518", "by_month": [18887, 20325, 31463, 33288, 34777, 42897, 55543, 40750, 32157, 24734, 23533, 0], "total": "358,354"}, {"id": "cong", "name": "Congaree National Park", "type": "National Park", "street": "100 National Park Road", "city": "Hopkins", "state_abbr": "SC", "zip": "29061", "lat": "33.8296531", "lon": "-80.82338050000001", "by_month": [7458, 13388, 21778, 18696, 18947, 14104, 10278, 13638, 7821, 0, 0, 0], "total": "126,108"}, {"id": "crla", "name": "Crater Lake National Park", "type": "National Park", "street": "Crater Lake National Park PO Box 7", "city": "Crater Lake", "state_abbr": "OR", "zip": "97604", "lat": "42.8684411", "lon": "-122.1684785", "by_month": [1935, 1402, 8716, 15043, 38145, 136567, 208237, 157429, 84340, 41231, 9687, 0], "total": "702,732"}, {"id": "cuva", "name": "Cuyahoga Valley National Park", "type": "National Park", "street": "1550 Boston Mills Road", "city": "Peninsula", "state_abbr": "OH", "zip": "44264", "lat": "41.2632712", "lon": "-81.558523", "by_month": [94019, 90987, 110435, 181533, 242698, 247225, 282963, 0, 0, 0, 0, 0], "total": "1,249,860"}, {"id": "deva", "name": "Death Valley National Park", "type": "National Park", "street": "579", "city": "Death Valley", "state_abbr": "CA", "zip": "92328", "lat": "36.4572559", "lon": "-116.8662563", "by_month": [66731, 78478, 107824, 105796, 104764, 82137, 129440, 166289, 134271, 107713, 0, 0], "total": "1,083,443"}, {"id": "dena", "name": "Denali National Park & Preserve", "type": "National Park & Preserve", "street": "Mile 237 Highway 3", "city": "Denali Park", "state_abbr": "AK", "zip": "99755", "lat": "63.7498804", "lon": "-148.9000286", "by_month": [725, 1467, 3449, 5658, 62667, 158760, 185801, 158941, 70460, 2434, 918, 0], "total": "651,280"}, {"id": "drto", "name": "Dry Tortugas National Park", "type": "National Park", "street": "40001 SR-9336", "city": "Homestead", "state_abbr": "FL", "zip": "33034", "lat": "25.4416472", "lon": "-80.7839642", "by_month": [92, 400, 2000, 1680, 908, 568, 628, 776, 176, 176, 608, 0], "total": "8,012"}, {"id": "ever", "name": "Everglades National Park", "type": "National Park", "street": "40001 State Road 9336", "city": "Homestead", "state_abbr": "FL", "zip": "33034", "lat": "25.1409318", "lon": "-80.9241724", "by_month": [194200, 120646, 126818, 98915, 74300, 68958, 52425, 45319, 4973, 16110, 20997, 0], "total": "823,661"}, {"id": "gaar", "name": "Gates Of The Arctic National Park & Preserve", "type": "National Park & Preserve", "street": "Airport Road", "city": "Bettles", "state_abbr": "AK", "zip": "99726", "lat": "66.9155294", "lon": "-151.5184912", "by_month": [198, 119, 280, 155, 355, 2364, 3145, 3533, 1013, 15, 0, 0], "total": "11,177"}, {"id": "glba", "name": "Glacier Bay National Park & Preserve", "type": "National Park & Preserve", "street": "1 Park Road", "city": "Gustavus", "state_abbr": "AK", "zip": "99826", "lat": "58.4556784", "lon": "-135.8687352", "by_month": [173, 172, 172, 185, 100414, 108459, 116188, 122086, 95026, 238, 0, 0], "total": "543,113"}, {"id": "glac", "name": "Glacier National Park", "type": "National Park", "street": "64 Grinnell Drive Glacier National Park Headquarters", "city": "West Glacier", "state_abbr": "MT", "zip": "59936", "lat": "48.5024625", "lon": "-113.9864865", "by_month": [14690, 13802, 19336, 38323, 177787, 620962, 1009665, 908479, 389137, 84469, 15594, 0], "total": "3,292,244"}, {"id": "grca", "name": "Grand Canyon National Park", "type": "National Park", "street": "20 South Entrance Road", "city": "Grand Canyon", "state_abbr": "AZ", "zip": "86023", "lat": "36.054966", "lon": "-112.1223696", "by_month": [217102, 239154, 502739, 590006, 606247, 710692, 806155, 734434, 557414, 529825, 0, 0], "total": "5,493,768"}, {"id": "grte", "name": "Grand Teton National Park", "type": "National Park", "street": "201 Headquarters Loop", "city": "Moose", "state_abbr": "WY", "zip": "83012", "lat": "43.6565288", "lon": "-110.7170897", "by_month": [45377, 44397, 53366, 58403, 255583, 637683, 739046, 716690, 482661, 187499, 45496, 0], "total": "3,266,201"}, {"id": "grba", "name": "Great Basin National Park", "type": "National Park", "street": "Great Basin National Park 5500 W Hwy 488", "city": "Baker", "state_abbr": "NV", "zip": "89311", "lat": "39.0056166", "lon": "-114.2198707", "by_month": [1144, 2289, 2199, 16671, 27678, 30983, 26286, 20231, 23694, 13307, 2126, 0], "total": "166,608"}, {"id": "grsa", "name": "Great Sand Dunes National Park & Preserve", "type": "National Park & Preserve", "street": "Visitor Center 11999 State Highway 150", "city": "Mosca", "state_abbr": "CO", "zip": "81146", "lat": "37.73300710000001", "lon": "-105.5124983", "by_month": [3173, 6547, 24744, 23064, 67737, 96529, 97242, 73579, 47673, 29763, 10510, 0], "total": "480,561"}, {"id": "grsm", "name": "Great Smoky Mountains National Park", "type": "National Park", "street": "Sugarlands Visitor Center 1420 Little River Road", "city": "Gatlinburg", "state_abbr": "TN", "zip": "37738", "lat": "35.685689", "lon": "-83.53654399999999", "by_month": [382161, 457921, 690615, 867375, 907646, 1304711, 1492508, 1235188, 1282168, 1336369, 817541, 0], "total": "10,774,203"}, {"id": "gumo", "name": "Guadalupe Mountains National Park", "type": "National Park", "street": "400 Pine Canyon", "city": "Salt Flat", "state_abbr": "TX", "zip": "79847", "lat": "31.892008", "lon": "-104.8204761", "by_month": [12105, 21610, 51285, 18856, 18076, 14733, 12234, 14183, 10114, 17643, 20336, 0], "total": "211,175"}, {"id": "hale", "name": "Haleakal_ National Park", "type": "National Park", "street": "HaleakalƒÅ National Park  Route 378", "city": "Kula", "state_abbr": "HI", "zip": "96790", "lat": "20.7594751", "lon": "-156.2467811", "by_month": [105951, 86467, 101252, 91200, 105664, 101215, 106569, 104603, 95214, 53030, 52971, 0], "total": "1,004,136"}, {"id": "havo", "name": "Hawai'i Volcanoes National Park", "type": "National Park", "street": "1 Crater Rim Drive", "city": "Hawaii National Park", "state_abbr": "HI", "zip": "96718", "lat": "19.4287416", "lon": "-155.25836", "by_month": [197836, 169822, 165607, 151049, 155710, 180135, 201554, 183307, 141377, 147225, 149202, 0], "total": "1,842,824"}, {"id": "hosp", "name": "Hot Springs National Park", "type": "National Park", "street": "369 Central Avenue", "city": "Hot Springs", "state_abbr": "AR", "zip": "71901", "lat": "34.5137179", "lon": "-93.0534607", "by_month": [78452, 85069, 124670, 107420, 133958, 157374, 177934, 215752, 143475, 126573, 104899, 0], "total": "1,455,576"}, {"id": "isro", "name": "Isle Royale National Park", "type": "National Park", "street": "800 East Lakeshore Drive", "city": "Houghton", "state_abbr": "MI", "zip": "49931", "lat": "47.1228651", "lon": "-88.56318739999999", "by_month": [47, 67, 87, 128, 1377, 4576, 8212, 10251, 3046, 255, 69, 0], "total": "28,115"}, {"id": "jotr", "name": "Joshua Tree National Park", "type": "National Park", "street": "74485 National Park Drive", "city": "Twentynine Palms", "state_abbr": "CA", "zip": "92277-3597", "lat": "34.1286751", "lon": "-116.0376186", "by_month": [240124, 260139, 404545, 361992, 221752, 125896, 124571, 142340, 157084, 223008, 43271, 0], "total": "2,304,722"}, {"id": "katm", "name": "Katmai National Park & Preserve", "type": "National Park & Preserve", "street": "1000 Silver Street Building 603", "city": "King Salmon", "state_abbr": "AK", "zip": "99613", "lat": "58.6829638", "lon": "-156.6687879", "by_month": [100, 100, 100, 100, 100, 5140, 16676, 10222, 4980, 100, 100, 0], "total": "37,718"}, {"id": "kefj", "name": "Kenai Fjords National Park", "type": "National Park", "street": "411 Washington Street", "city": "Seward", "state_abbr": "AK", "zip": "99664", "lat": "60.10094339999999", "lon": "-149.4393961", "by_month": [27, 46, 31, 16, 26598, 75399, 100683, 64761, 31297, 4707, 12, 0], "total": "303,577"}, {"id": "kova", "name": "Kobuk Valley National Park", "type": "National Park", "street": "171 3rd Ave", "city": "Kotzebue", "state_abbr": "AK", "zip": "99752", "lat": "66.8934286", "lon": "-162.6014889", "by_month": [1400, 800, 900, 900, 900, 1200, 1500, 1600, 1600, 1800, 1500, 0], "total": "14,100"}, {"id": "lach", "name": "Lake Chelan National Recreation Area", "type": "National Park", "street": "810 State Route 20", "city": "Sedro-Woolley", "state_abbr": "WA", "zip": "98284", "lat": "48.5109357", "lon": "-122.2275655", "by_month": [794, 753, 1167, 2008, 3329, 5048, 7463, 6881, 6363, 2676, 1022, 0], "total": "37,504"}, {"id": "lacl", "name": "Lake Clark National Park & Preserve", "type": "National Park & Preserve", "street": "1 Park Place", "city": "Port Alsworth", "state_abbr": "AK", "zip": "99653", "lat": "60.1974034", "lon": "-154.322752", "by_month": [147, 203, 309, 298, 596, 3647, 5982, 6188, 2989, 301, 227, 215], "total": "21,102"}, {"id": "lavo", "name": "Lassen Volcanic National Park", "type": "National Park", "street": "38050 Hwy 36 E", "city": "Mineral", "state_abbr": "CA", "zip": "96063", "lat": "40.3466568", "lon": "-121.6080237", "by_month": [9231, 7203, 7002, 10518, 31173, 58880, 122834, 111514, 88593, 40581, 10335, 0], "total": "497,864"}, {"id": "maca", "name": "Mammoth Cave National Park", "type": "National Park", "street": "7", "city": "Mammoth Cave", "state_abbr": "KY", "zip": "42259-0007", "lat": "37.187515", "lon": "-86.2520047", "by_month": [9842, 11027, 45290, 60668, 50498, 82062, 115323, 84608, 41365, 48939, 22779, 0], "total": "572,401"}, {"id": "meve", "name": "Mesa Verde National Park", "type": "National Park", "street": "Mile .7 Headquarters Loop Road", "city": "Mesa Verde National Park", "state_abbr": "CO", "zip": "81330", "lat": "37.2308729", "lon": "-108.4618335", "by_month": [5601, 5737, 21016, 34568, 64239, 111130, 119918, 96470, 77036, 51351, 14824, 0], "total": "601,890"}, {"id": "mora", "name": "Mount Rainier National Park", "type": "National Park", "street": "55210 238th Avenue East", "city": "Ashford", "state_abbr": "WA", "zip": "98304", "lat": "46.7558435", "lon": "-122.1207775", "by_month": [27204, 21557, 22768, 34679, 97809, 189348, 329618, 323130, 195641, 89520, 58164, 0], "total": "1,389,438"}, {"id": "npsa", "name": "National Park of American Samoa", "type": "National Park", "street": "National Park of American Samoa MHJ Building, 2nd Floor", "city": "Pago Pago", "state_abbr": "AS", "zip": "96799", "lat": "-14.2583333", "lon": "-170.6833333", "by_month": [4788, 3817, 4838, 7497, 4667, 5181, 6090, 4421, 4218, 11494, 7666, 0], "total": "64,677"}, {"id": "noca", "name": "North Cascades National Park", "type": "National Park", "street": "810 State Route 20", "city": "Sedro-Woolley", "state_abbr": "WA", "zip": "98284", "lat": "48.5109357", "lon": "-122.2275655", "by_month": [37, 6, 9, 199, 1131, 2981, 8560, 9704, 6752, 777, 140, 0], "total": "30,296"}, {"id": "olym", "name": "Olympic National Park", "type": "National Park", "street": "Olympic National Park Visitor Center 3002 Mount Angeles Road", "city": "Port Angeles", "state_abbr": "WA", "zip": "98362", "lat": "48.0993916", "lon": "-123.425846", "by_month": [96056, 94433, 114817, 202039, 350885, 500191, 510184, 764282, 411658, 194127, 0, 0], "total": "3,238,672"}, {"id": "pefo", "name": "Petrified Forest National Park", "type": "National Park", "street": "1 Park Road", "city": "Petrified Forest", "state_abbr": "AZ", "zip": "86028", "lat": "35.065907", "lon": "-109.781625", "by_month": [24592, 21907, 54971, 49474, 61584, 82104, 81984, 76121, 47260, 65029, 33237, 0], "total": "598,263"}, {"id": "pinn", "name": "Pinnacles National Park", "type": "National Park", "street": "5000 Highway 146", "city": "Paicines", "state_abbr": "CA", "zip": "95043", "lat": "36.4937268", "lon": "-121.146443", "by_month": [12696, 13476, 28618, 34773, 24776, 20556, 20705, 15827, 12781, 15829, 15473, 0], "total": "215,510"}, {"id": "romo", "name": "Rocky Mountain National Park", "type": "National Park", "street": "1000 US Hwy 36", "city": "Estes Park", "state_abbr": "CO", "zip": "80517", "lat": "40.36620870000001", "lon": "-105.560894", "by_month": [95602, 98832, 145110, 158360, 263222, 741247, 885478, 782625, 681160, 332526, 140223, 0], "total": "4,324,385"}, {"id": "sagu", "name": "Saguaro National Park", "type": "National Park", "street": "3693 S Old Spanish Trail", "city": "Tucson", "state_abbr": "AZ", "zip": "85730", "lat": "32.1808849", "lon": "-110.7380215", "by_month": [106868, 129417, 139654, 99335, 61633, 45316, 51672, 56232, 43075, 58748, 79688, 0], "total": "871,638"}, {"id": "kica", "name": "Sequoia & Kings Canyon National Parks", "type": "National Parks", "street": "47050 Generals Highway", "city": "Three Rivers", "state_abbr": "CA", "zip": "93271", "lat": "36.5647207", "lon": "-118.7727191", "by_month": [15418, 11318, 21097, 37205, 75564, 101999, 135073, 102530, 85345, 54012, 29885, 0], "total": "669,446"}, {"id": "shen", "name": "Shenandoah National Park", "type": "National Park", "street": "Shenandoah National Park 3655 U.S. Highway 211 East", "city": "Luray", "state_abbr": "VA", "zip": "22835", "lat": "38.6632349", "lon": "-78.3721789", "by_month": [19961, 43927, 44352, 122666, 136233, 163193, 199031, 187626, 156788, 244484, 114779, 0], "total": "1,433,040"}, {"id": "thro", "name": "Theodore Roosevelt National Park", "type": "National Park", "street": "315 Second Avenue", "city": "Medora", "state_abbr": "ND", "zip": "58645", "lat": "46.9157594", "lon": "-103.5245147", "by_month": [1905, 3459, 7957, 22137, 79745, 109297, 156123, 160360, 92235, 54859, 18214, 0], "total": "706,291"}, {"id": "viis", "name": "Virgin Islands National Park", "type": "National Park", "street": "1300 Cruz Bay Creek", "city": "St. John", "state_abbr": "VI", "zip": "00830", "lat": "18.3424047", "lon": "-64.74857589999999", "by_month": [43527, 47480, 52123, 36005, 35278, 27982, 28818, 32910, 0, 0, 0, 0], "total": "304,123"}, {"id": "voya", "name": "Voyageurs National Park", "type": "National Park", "street": "Voyageurs National Park Headquarters 360 Hwy 11 East", "city": "International Falls", "state_abbr": "MN", "zip": "56649", "lat": "48.4840955", "lon": "-92.8270873", "by_month": [3906, 7729, 1221, 331, 29449, 49235, 53350, 52552, 25963, 11517, 2429, 0], "total": "237,682"}, {"id": "wica", "name": "Wind Cave National Park", "type": "National Park", "street": "26611 US Highway 385", "city": "Hot Springs", "state_abbr": "SD", "zip": "57747", "lat": "43.491921", "lon": "-103.4611981", "by_month": [11916, 15543, 24897, 38003, 46205, 116823, 128984, 103518, 77574, 28696, 15994, 0], "total": "608,153"}, {"id": "wotr", "name": "Wolf Trap National Park for the Performing Arts", "type": "National Park", "street": "1551 Trap Road", "city": "Vienna", "state_abbr": "VA", "zip": "22182-1643", "lat": "38.9381714", "lon": "-77.2652809", "by_month": [712, 457, 677, 2744, 22818, 92424, 121928, 95671, 72644, 0, 0, 0], "total": "410,075"}, {"id": "wrst", "name": "Wrangell - St Elias National Park & Preserve", "type": "National Park & Preserve", "street": "Wrangell-St. Elias National Park & Preserve PO Box 439 Mile 106.8 Richardson Highway", "city": "Copper Center", "state_abbr": "AK", "zip": "99573", "lat": "61.6440733", "lon": "-145.3628538", "by_month": [25, 95, 230, 520, 4715, 14484, 21367, 18752, 7479, 530, 60, 35], "total": "68,292"}, {"id": "yell", "name": "Yellowstone National Park", "type": "National Park", "street": "2 Officers Row Yellowstone National Park Headquarters", "city": "Yellowstone National Park", "state_abbr": "WY", "zip": "82190", "lat": "44.427963", "lon": "-110.588455", "by_month": [29518, 32275, 23897, 45160, 419635, 803652, 962404, 916166, 640068, 211987, 10468, 0], "total": "4,095,230"}, {"id": "yose", "name": "Yosemite National Park", "type": "National Park", "street": "PO Box 577", "city": "Yosemite National Park", "state_abbr": "CA", "zip": "95389", "lat": "37.6415479", "lon": "-119.6267347", "by_month": [120025, 119421, 166793, 302553, 450542, 565702, 633351, 609676, 566279, 0, 0, 0], "total": "3,534,342"}, {"id": "zion", "name": "Zion National Park", "type": "National Park", "street": "Zion National Park 1 Zion Park Blvd. State Route 9", "city": "Springdale", "state_abbr": "UT", "zip": "84767", "lat": "37.1888145", "lon": "-112.9983749", "by_month": [88561, 110569, 345476, 515652, 509017, 533252, 576349, 529684, 512940, 422377, 222069, 0], "total": "4,365,946"}]